[{"uprn":"6022594","organisation_name":"","department_name":"","po_box_number":"","building_name":"","sub_building_name":"","building_number":402,"thoroughfare_name":"HACKNEY ROAD","dependent_thoroughfare_name":"","dependent_locality":"","double_dependent_locality":"","post_town":"LONDON","postcode":"E2 7AP","postcode_type":"S","formatted_address":"402 Hackney Road\nLondon\nE2 7AP","point":{"type":"Point","coordinates":[-0.0626705,51.5314933]}},{"uprn":"6022595","organisation_name":"","department_name":"","po_box_number":"","building_name":"","sub_building_name":"","building_number":408,"thoroughfare_name":"HACKNEY ROAD","dependent_thoroughfare_name":"","dependent_locality":"","double_dependent_locality":"","post_town":"LONDON","postcode":"E2 7AP","postcode_type":"S","formatted_address":"408 Hackney Road\nLondon\nE2 7AP","point":{"type":"Point","coordinates":[-0.0621888,51.5314964]}},{"uprn":"6022596","organisation_name":"DIL SUPPLY","department_name":"","po_box_number":"","building_name":"","sub_building_name":"","building_number":412,"thoroughfare_name":"HACKNEY ROAD","dependent_thoroughfare_name":"","dependent_locality":"","double_dependent_locality":"","post_town":"LONDON","postcode":"E2 7AP","postcode_type":"S","formatted_address":"Dil Supply\n412 Hackney Road\nLondon\nE2 7AP","point":{"type":"Point","coordinates":[-0.0620351,51.531525]}},{"uprn":"6355204","organisation_name":"","department_name":"","po_box_number":"","building_name":"","sub_building_name":"FLAT 1","building_number":424,"thoroughfare_name":"HACKNEY ROAD","dependent_thoroughfare_name":"","dependent_locality":"","double_dependent_locality":"","post_town":"LONDON","postcode":"E2 7AP","postcode_type":"S","formatted_address":"Flat 1\n424 Hackney Road\nLondon\nE2 7AP","point":{"type":"Point","coordinates":[-0.0615628,51.531639]}},{"uprn":"6147291","organisation_name":"","department_name":"","po_box_number":"","building_name":"","sub_building_name":"FLAT 2","building_number":424,"thoroughfare_name":"HACKNEY ROAD","dependent_thoroughfare_name":"","dependent_locality":"","double_dependent_locality":"","post_town":"LONDON","postcode":"E2 7AP","postcode_type":"S","formatted_address":"Flat 2\n424 Hackney Road\nLondon\nE2 7AP","point":{"type":"Point","coordinates":[-0.0615628,51.531639]}},{"uprn":"6147386","organisation_name":"","department_name":"","po_box_number":"","building_name":"","sub_building_name":"FLAT 6","building_number":424,"thoroughfare_name":"HACKNEY ROAD","dependent_thoroughfare_name":"","dependent_locality":"","double_dependent_locality":"","post_town":"LONDON","postcode":"E2 7AP","postcode_type":"S","formatted_address":"Flat 6\n424 Hackney Road\nLondon\nE2 7AP","point":{"type":"Point","coordinates":[-0.0615628,51.531639]}},{"uprn":"6144175","organisation_name":"","department_name":"","po_box_number":"","building_name":"","sub_building_name":"FLAT 7","building_number":424,"thoroughfare_name":"HACKNEY ROAD","dependent_thoroughfare_name":"","dependent_locality":"","double_dependent_locality":"","post_town":"LONDON","postcode":"E2 7AP","postcode_type":"S","formatted_address":"Flat 7\n424 Hackney Road\nLondon\nE2 7AP","point":{"type":"Point","coordinates":[-0.0615628,51.531639]}},{"uprn":"6355206","organisation_name":"","department_name":"","po_box_number":"","building_name":"","sub_building_name":"FLAT 8","building_number":424,"thoroughfare_name":"HACKNEY ROAD","dependent_thoroughfare_name":"","dependent_locality":"","double_dependent_locality":"","post_town":"LONDON","postcode":"E2 7AP","postcode_type":"S","formatted_address":"Flat 8\n424 Hackney Road\nLondon\nE2 7AP","point":{"type":"Point","coordinates":[-0.0615628,51.531639]}},{"uprn":"6109717","organisation_name":"","department_name":"","po_box_number":"","building_name":"","sub_building_name":"STUDIO 10","building_number":424,"thoroughfare_name":"HACKNEY ROAD","dependent_thoroughfare_name":"","dependent_locality":"","double_dependent_locality":"","post_town":"LONDON","postcode":"E2 7AP","postcode_type":"S","formatted_address":"Studio 10\n424 Hackney Road\nLondon\nE2 7AP","point":{"type":"Point","coordinates":[-0.0615308,51.5316111]}},{"uprn":"6355203","organisation_name":"SAM DEE & CO","department_name":"","po_box_number":"","building_name":"SUITE 3","sub_building_name":"","building_number":424,"thoroughfare_name":"HACKNEY ROAD","dependent_thoroughfare_name":"","dependent_locality":"","double_dependent_locality":"","post_town":"LONDON","postcode":"E2 7AP","postcode_type":"S","formatted_address":"Sam Dee & Co\nSuite 3\n424 Hackney Road\nLondon\nE2 7AP","point":{"type":"Point","coordinates":[-0.0615307,51.5316111]}},{"uprn":"6144177","organisation_name":"","department_name":"","po_box_number":"","building_name":"","sub_building_name":"UNIT 1","building_number":426,"thoroughfare_name":"HACKNEY ROAD","dependent_thoroughfare_name":"","dependent_locality":"","double_dependent_locality":"","post_town":"LONDON","postcode":"E2 7AP","postcode_type":"S","formatted_address":"Unit 1\n426 Hackney Road\nLondon\nE2 7AP","point":{"type":"Point","coordinates":[-0.0615628,51.531639]}},{"uprn":"6147333","organisation_name":"","department_name":"","po_box_number":"","building_name":"","sub_building_name":"UNIT 3","building_number":426,"thoroughfare_name":"HACKNEY ROAD","dependent_thoroughfare_name":"","dependent_locality":"","double_dependent_locality":"","post_town":"LONDON","postcode":"E2 7AP","postcode_type":"S","formatted_address":"Unit 3\n426 Hackney Road\nLondon\nE2 7AP","point":{"type":"Point","coordinates":[-0.0615628,51.531639]}},{"uprn":"6144179","organisation_name":"","department_name":"","po_box_number":"","building_name":"","sub_building_name":"UNIT 4","building_number":426,"thoroughfare_name":"HACKNEY ROAD","dependent_thoroughfare_name":"","dependent_locality":"","double_dependent_locality":"","post_town":"LONDON","postcode":"E2 7AP","postcode_type":"S","formatted_address":"Unit 4\n426 Hackney Road\nLondon\nE2 7AP","point":{"type":"Point","coordinates":[-0.0615628,51.531639]}},{"uprn":"6144180","organisation_name":"","department_name":"","po_box_number":"","building_name":"","sub_building_name":"UNIT 5","building_number":426,"thoroughfare_name":"HACKNEY ROAD","dependent_thoroughfare_name":"","dependent_locality":"","double_dependent_locality":"","post_town":"LONDON","postcode":"E2 7AP","postcode_type":"S","formatted_address":"Unit 5\n426 Hackney Road\nLondon\nE2 7AP","point":{"type":"Point","coordinates":[-0.0615628,51.531639]}},{"uprn":"6178043","organisation_name":"","department_name":"","po_box_number":"","building_name":"","sub_building_name":"UNIT 6","building_number":426,"thoroughfare_name":"HACKNEY ROAD","dependent_thoroughfare_name":"","dependent_locality":"","double_dependent_locality":"","post_town":"LONDON","postcode":"E2 7AP","postcode_type":"S","formatted_address":"Unit 6\n426 Hackney Road\nLondon\nE2 7AP","point":{"type":"Point","coordinates":[-0.0615308,51.5316111]}},{"uprn":"6022597","organisation_name":"","department_name":"","po_box_number":"","building_name":"","sub_building_name":"","building_number":428,"thoroughfare_name":"HACKNEY ROAD","dependent_thoroughfare_name":"","dependent_locality":"","double_dependent_locality":"","post_town":"LONDON","postcode":"E2 7AP","postcode_type":"S","formatted_address":"428 Hackney Road\nLondon\nE2 7AP","point":{"type":"Point","coordinates":[-0.0614028,51.5316723]}},{"uprn":"6023160","organisation_name":"","department_name":"","po_box_number":"","building_name":"390B","sub_building_name":"","building_number":null,"thoroughfare_name":"HACKNEY ROAD","dependent_thoroughfare_name":"","dependent_locality":"","double_dependent_locality":"","post_town":"LONDON","postcode":"E2 7AP","postcode_type":"S","formatted_address":"390B Hackney Road\nLondon\nE2 7AP","point":{"type":"Point","coordinates":[-0.0633192,51.5313623]}},{"uprn":"6021836","organisation_name":"CITY SMILE DENTIST PRACTICE","department_name":"","po_box_number":"","building_name":"406B","sub_building_name":"","building_number":null,"thoroughfare_name":"HACKNEY ROAD","dependent_thoroughfare_name":"","dependent_locality":"","double_dependent_locality":"","post_town":"LONDON","postcode":"E2 7AP","postcode_type":"S","formatted_address":"City Smile Dentist Practice\n406B Hackney Road\nLondon\nE2 7AP","point":{"type":"Point","coordinates":[-0.0625358,51.5314752]}},{"uprn":"10091941195","organisation_name":"ELEGANCE & STYLE","department_name":"","po_box_number":"","building_name":"406C","sub_building_name":"","building_number":null,"thoroughfare_name":"HACKNEY ROAD","dependent_thoroughfare_name":"","dependent_locality":"","double_dependent_locality":"","post_town":"LONDON","postcode":"E2 7AP","postcode_type":"S","formatted_address":"Elegance & Style\n406C Hackney Road\nLondon\nE2 7AP","point":{"type":"Point","coordinates":[-0.06249,51.5315074]}},{"uprn":"6023127","organisation_name":"","department_name":"","po_box_number":"","building_name":"414B","sub_building_name":"","building_number":null,"thoroughfare_name":"HACKNEY ROAD","dependent_thoroughfare_name":"","dependent_locality":"","double_dependent_locality":"","post_town":"LONDON","postcode":"E2 7AP","postcode_type":"S","formatted_address":"414B Hackney Road\nLondon\nE2 7AP","point":{"type":"Point","coordinates":[-0.0617983,51.5315259]}},{"uprn":"6023128","organisation_name":"","department_name":"","po_box_number":"","building_name":"414C","sub_building_name":"","building_number":null,"thoroughfare_name":"HACKNEY ROAD","dependent_thoroughfare_name":"","dependent_locality":"","double_dependent_locality":"","post_town":"LONDON","postcode":"E2 7AP","postcode_type":"S","formatted_address":"414C Hackney Road\nLondon\nE2 7AP","point":{"type":"Point","coordinates":[-0.0617983,51.5315259]}},{"uprn":"6023129","organisation_name":"","department_name":"","po_box_number":"","building_name":"414D","sub_building_name":"","building_number":null,"thoroughfare_name":"HACKNEY ROAD","dependent_thoroughfare_name":"","dependent_locality":"","double_dependent_locality":"","post_town":"LONDON","postcode":"E2 7AP","postcode_type":"S","formatted_address":"414D Hackney Road\nLondon\nE2 7AP","point":{"type":"Point","coordinates":[-0.0617983,51.5315259]}},{"uprn":"6023130","organisation_name":"","department_name":"","po_box_number":"","building_name":"416A","sub_building_name":"","building_number":null,"thoroughfare_name":"HACKNEY ROAD","dependent_thoroughfare_name":"","dependent_locality":"","double_dependent_locality":"","post_town":"LONDON","postcode":"E2 7AP","postcode_type":"S","formatted_address":"416A Hackney Road\nLondon\nE2 7AP","point":{"type":"Point","coordinates":[-0.0617983,51.5315259]}},{"uprn":"6023131","organisation_name":"","department_name":"","po_box_number":"","building_name":"416B","sub_building_name":"","building_number":null,"thoroughfare_name":"HACKNEY ROAD","dependent_thoroughfare_name":"","dependent_locality":"","double_dependent_locality":"","post_town":"LONDON","postcode":"E2 7AP","postcode_type":"S","formatted_address":"416B Hackney Road\nLondon\nE2 7AP","point":{"type":"Point","coordinates":[-0.0617983,51.5315259]}},{"uprn":"6023132","organisation_name":"","department_name":"","po_box_number":"","building_name":"416C","sub_building_name":"","building_number":null,"thoroughfare_name":"HACKNEY ROAD","dependent_thoroughfare_name":"","dependent_locality":"","double_dependent_locality":"","post_town":"LONDON","postcode":"E2 7AP","postcode_type":"S","formatted_address":"416C Hackney Road\nLondon\nE2 7AP","point":{"type":"Point","coordinates":[-0.0617983,51.5315259]}},{"uprn":"6023134","organisation_name":"","department_name":"","po_box_number":"","building_name":"418A","sub_building_name":"","building_number":null,"thoroughfare_name":"HACKNEY ROAD","dependent_thoroughfare_name":"","dependent_locality":"","double_dependent_locality":"","post_town":"LONDON","postcode":"E2 7AP","postcode_type":"S","formatted_address":"418A Hackney Road\nLondon\nE2 7AP","point":{"type":"Point","coordinates":[-0.0617983,51.5315259]}},{"uprn":"6023135","organisation_name":"","department_name":"","po_box_number":"","building_name":"418B","sub_building_name":"","building_number":null,"thoroughfare_name":"HACKNEY ROAD","dependent_thoroughfare_name":"","dependent_locality":"","double_dependent_locality":"","post_town":"LONDON","postcode":"E2 7AP","postcode_type":"S","formatted_address":"418B Hackney Road\nLondon\nE2 7AP","point":{"type":"Point","coordinates":[-0.0617983,51.5315259]}},{"uprn":"6023136","organisation_name":"","department_name":"","po_box_number":"","building_name":"418C","sub_building_name":"","building_number":null,"thoroughfare_name":"HACKNEY ROAD","dependent_thoroughfare_name":"","dependent_locality":"","double_dependent_locality":"","post_town":"LONDON","postcode":"E2 7AP","postcode_type":"S","formatted_address":"418C Hackney Road\nLondon\nE2 7AP","point":{"type":"Point","coordinates":[-0.0617983,51.5315259]}},{"uprn":"6023137","organisation_name":"","department_name":"","po_box_number":"","building_name":"418D","sub_building_name":"","building_number":null,"thoroughfare_name":"HACKNEY ROAD","dependent_thoroughfare_name":"","dependent_locality":"","double_dependent_locality":"","post_town":"LONDON","postcode":"E2 7AP","postcode_type":"S","formatted_address":"418D Hackney Road\nLondon\nE2 7AP","point":{"type":"Point","coordinates":[-0.0617983,51.5315259]}},{"uprn":"6141620","organisation_name":"","department_name":"","po_box_number":"","building_name":"428A","sub_building_name":"","building_number":null,"thoroughfare_name":"HACKNEY ROAD","dependent_thoroughfare_name":"","dependent_locality":"","double_dependent_locality":"","post_town":"LONDON","postcode":"E2 7AP","postcode_type":"S","formatted_address":"428A Hackney Road\nLondon\nE2 7AP","point":{"type":"Point","coordinates":[-0.0614031,51.5316633]}}]